[{"_id":"57eeb0a8ee1c7a25ec265c73","name":"Oregon Novelties","address1":"912 NW Davis St","city":"Portland","state":"OR","zip":"97209","country":"US","phone":"503-555-1212","active":true,"__v":0,"lat":45.5244002,"lng":-122.6804891},{"_id":"57eeb0a8ee1c7a25ec265c74","name":"Bruce's Bric-a-Brac","address1":"159 Beeswax Ln","city":"Manzanita","state":"OR","zip":"97209","country":"US","phone":"503-555-1212","active":true,"__v":0,"lat":45.715849,"lng":-123.937993},{"_id":"57eeb0a8efd1d925e768d2bf","name":"Oregon Novelties","address1":"912 NW Davis St","city":"Portland","state":"OR","zip":"97209","country":"US","phone":"503-555-1212","active":true,"__v":0,"lat":45.5244002,"lng":-122.6804891},{"_id":"57eeb0a8efd1d925e768d2c0","name":"Bruce's Bric-a-Brac","address1":"159 Beeswax Ln","city":"Manzanita","state":"OR","zip":"97209","country":"US","phone":"503-555-1212","active":true,"__v":0,"lat":45.715849,"lng":-123.937993},{"_id":"57eeb0a8efd1d925e768d2c1","name":"Aunt Beru's Oregon Souveniers","address1":"544 NE Emerson Ave","city":"Bend","state":"OR","zip":"97701","country":"US","phone":"503-555-1212","active":true,"__v":0,"lat":44.0551243,"lng":-121.2978979},{"_id":"57eeb0a8ee1c7a25ec265c75","name":"Aunt Beru's Oregon Souveniers","address1":"544 NE Emerson Ave","city":"Bend","state":"OR","zip":"97701","country":"US","phone":"503-555-1212","active":true,"__v":0,"lat":44.0551243,"lng":-121.2978979},{"_id":"57eeb0a8ee1c7a25ec265c76","name":"Oregon Goodies","address1":"1353 NW Beca Ave","city":"Corvallis","state":"OR","zip":"97330","country":"US","phone":"503-555-1212","active":true,"__v":0,"lat":44.5783785,"lng":-123.2677716},{"_id":"57eeb0a8efd1d925e768d2c2","name":"Oregon Goodies","address1":"1353 NW Beca Ave","city":"Corvallis","state":"OR","zip":"97330","country":"US","phone":"503-555-1212","active":true,"__v":0,"lat":44.5783785,"lng":-123.2677716},{"_id":"57eeb0a8efd1d925e768d2c3","name":"Oregon Grab-n-Fly","address1":"7000 NE Airport Way","city":"Portland","state":"OR","zip":"97219","country":"US","phone":"503-555-1212","active":true,"__v":0,"lat":45.5893574,"lng":-122.5933326},{"_id":"57eeb0a8ee1c7a25ec265c77","name":"Oregon Grab-n-Fly","address1":"7000 NE Airport Way","city":"Portland","state":"OR","zip":"97219","country":"US","phone":"503-555-1212","active":true,"__v":0,"lat":45.5893574,"lng":-122.5933326},{"_id":"57eeb0a90721d925f233ed3f","name":"Oregon Novelties","address1":"912 NW Davis St","city":"Portland","state":"OR","zip":"97209","country":"US","phone":"503-555-1212","active":true,"__v":0,"lat":45.5244002,"lng":-122.6804891},{"_id":"57eeb0a9af01e325f1b3d074","name":"Oregon Novelties","address1":"912 NW Davis St","city":"Portland","state":"OR","zip":"97209","country":"US","phone":"503-555-1212","active":true,"__v":0,"lat":45.5244002,"lng":-122.6804891},{"_id":"57eeb0a90721d925f233ed40","name":"Bruce's Bric-a-Brac","address1":"159 Beeswax Ln","city":"Manzanita","state":"OR","zip":"97209","country":"US","phone":"503-555-1212","active":true,"__v":0,"lat":45.715849,"lng":-123.937993},{"_id":"57eeb0a90721d925f233ed41","name":"Aunt Beru's Oregon Souveniers","address1":"544 NE Emerson Ave","city":"Bend","state":"OR","zip":"97701","country":"US","phone":"503-555-1212","active":true,"__v":0,"lat":44.0551243,"lng":-121.2978979},{"_id":"57eeb0a9af01e325f1b3d075","name":"Bruce's Bric-a-Brac","address1":"159 Beeswax Ln","city":"Manzanita","state":"OR","zip":"97209","country":"US","phone":"503-555-1212","active":true,"__v":0,"lat":45.715849,"lng":-123.937993},{"_id":"57eeb0a9af01e325f1b3d076","name":"Aunt Beru's Oregon Souveniers","address1":"544 NE Emerson Ave","city":"Bend","state":"OR","zip":"97701","country":"US","phone":"503-555-1212","active":true,"__v":0,"lat":44.0551243,"lng":-121.2978979},{"_id":"57eeb0a90721d925f233ed42","name":"Oregon Goodies","address1":"1353 NW Beca Ave","city":"Corvallis","state":"OR","zip":"97330","country":"US","phone":"503-555-1212","active":true,"__v":0,"lat":44.5783785,"lng":-123.2677716},{"_id":"57eeb0a90721d925f233ed43","name":"Oregon Grab-n-Fly","address1":"7000 NE Airport Way","city":"Portland","state":"OR","zip":"97219","country":"US","phone":"503-555-1212","active":true,"__v":0,"lat":45.5893574,"lng":-122.5933326},{"_id":"57eeb0a9af01e325f1b3d077","name":"Oregon Goodies","address1":"1353 NW Beca Ave","city":"Corvallis","state":"OR","zip":"97330","country":"US","phone":"503-555-1212","active":true,"__v":0,"lat":44.5783785,"lng":-123.2677716},{"_id":"57eeb0a9af01e325f1b3d078","name":"Oregon Grab-n-Fly","address1":"7000 NE Airport Way","city":"Portland","state":"OR","zip":"97219","country":"US","phone":"503-555-1212","active":true,"__v":0,"lat":45.5893574,"lng":-122.5933326}]